Rank,Ciudad,Latitud,Longitud;;
1,São Paulo,-23.5505,-46.6333;;
2,Rio de Janeiro,-22.9068,-43.1729;;
3,Brasília,-15.7939,-47.8828;;
4,Salvador,-12.9714,-38.5014;;
5,Fortaleza,-3.7172,-38.5434;;
6,Belo Horizonte,-19.9167,-43.9345;;
7,Manaus,-3.1190,-60.0217;;
8,Curitiba,-25.4297,-49.2719;;
9,Recife,-8.0476,-34.8770;;
10,Porto Alegre,-30.0346,-51.2177;;
11,Belém,-1.4558,-48.4902;;
12,Goiânia,-16.6869,-49.2648;;
13,Guarulhos,-23.4538,-46.5333;;
14,Campinas,-22.9071,-47.0632;;
15,São Luís,-2.5307,-44.3068;;
16,São Gonçalo,-22.8268,-43.0634;;
17,Maceió,-9.6658,-35.7350;;
18,Duque de Caxias,-22.7856,-43.3049;;
19,Natal,-5.7945,-35.2110;;
